$GPGGA,053133.043,4100.458,N,02859.709,E,1,12,1.0,0.0,M,0.0,M,,*6A
$GPGSA,A,3,01,02,03,04,05,06,07,08,09,10,11,12,1.0,1.0,1.0*30
$GPRMC,053133.043,A,4100.458,N,02859.709,E,3676.1,354.8,240220,000.0,W*47
$GPGGA,053134.043,4101.476,N,02859.616,E,1,12,1.0,0.0,M,0.0,M,,*6F
$GPGSA,A,3,01,02,03,04,05,06,07,08,09,10,11,12,1.0,1.0,1.0*30
$GPRMC,053134.043,A,4101.476,N,02859.616,E,5495.2,267.6,240220,000.0,W*47
$GPGGA,053135.043,4101.390,N,02857.598,E,1,12,1.0,0.0,M,0.0,M,,*6A
$GPGSA,A,3,01,02,03,04,05,06,07,08,09,10,11,12,1.0,1.0,1.0*30
$GPRMC,053135.043,A,4101.390,N,02857.598,E,4002.7,195.3,240220,000.0,W*47
$GPGGA,053136.043,4100.302,N,02857.299,E,1,12,1.0,0.0,M,0.0,M,,*65
$GPGSA,A,3,01,02,03,04,05,06,07,08,09,10,11,12,1.0,1.0,1.0*30
$GPRMC,053136.043,A,4100.302,N,02857.299,E,5988.4,292.3,240220,000.0,W*45
$GPGGA,053137.043,4101.095,N,02855.363,E,1,12,1.0,0.0,M,0.0,M,,*6E
$GPGSA,A,3,01,02,03,04,05,06,07,08,09,10,11,12,1.0,1.0,1.0*30
$GPRMC,053137.043,A,4101.095,N,02855.363,E,3409.3,039.8,240220,000.0,W*43
$GPGGA,053138.043,4101.895,N,02856.032,E,1,12,1.0,0.0,M,0.0,M,,*6D
$GPGSA,A,3,01,02,03,04,05,06,07,08,09,10,11,12,1.0,1.0,1.0*30
$GPRMC,053138.043,A,4101.895,N,02856.032,E,7842.6,072.6,240220,000.0,W*43
$GPGGA,053139.043,4102.726,N,02858.700,E,1,12,1.0,0.0,M,0.0,M,,*60
$GPGSA,A,3,01,02,03,04,05,06,07,08,09,10,11,12,1.0,1.0,1.0*30
$GPRMC,053139.043,A,4102.726,N,02858.700,E,11263.4,092.2,240220,000.0,W*78
$GPGGA,053140.043,4102.571,N,02902.840,E,1,12,1.0,0.0,M,0.0,M,,*6B
$GPGSA,A,3,01,02,03,04,05,06,07,08,09,10,11,12,1.0,1.0,1.0*30
$GPRMC,053140.043,A,4102.571,N,02902.840,E,5418.3,157.8,240220,000.0,W*49
$GPGGA,053141.043,4101.134,N,02903.427,E,1,12,1.0,0.0,M,0.0,M,,*60
$GPGSA,A,3,01,02,03,04,05,06,07,08,09,10,11,12,1.0,1.0,1.0*30
$GPRMC,053141.043,A,4101.134,N,02903.427,E,2792.6,212.3,240220,000.0,W*48
$GPGGA,053142.043,4100.434,N,02902.984,E,1,12,1.0,0.0,M,0.0,M,,*62
$GPGSA,A,3,01,02,03,04,05,06,07,08,09,10,11,12,1.0,1.0,1.0*30
$GPRMC,053142.043,A,4100.434,N,02902.984,E,3545.7,231.3,240220,000.0,W*43
$GPGGA,053143.043,4059.719,N,02902.088,E,1,12,1.0,0.0,M,0.0,M,,*67
$GPGSA,A,3,01,02,03,04,05,06,07,08,09,10,11,12,1.0,1.0,1.0*30
$GPRMC,053143.043,A,4059.719,N,02902.088,E,5921.0,237.2,240220,000.0,W*4E
$GPGGA,053144.043,4058.654,N,02900.430,E,1,12,1.0,0.0,M,0.0,M,,*6C
$GPGSA,A,3,01,02,03,04,05,06,07,08,09,10,11,12,1.0,1.0,1.0*30
$GPRMC,053144.043,A,4058.654,N,02900.430,E,7619.5,270.3,240220,000.0,W*44
$GPGGA,053145.043,4058.669,N,02857.629,E,1,12,1.0,0.0,M,0.0,M,,*6A
$GPGSA,A,3,01,02,03,04,05,06,07,08,09,10,11,12,1.0,1.0,1.0*30
$GPRMC,053145.043,A,4058.669,N,02857.629,E,10023.0,282.7,240220,000.0,W*77
$GPGGA,053146.043,4059.463,N,02854.096,E,1,12,1.0,0.0,M,0.0,M,,*61
$GPGSA,A,3,01,02,03,04,05,06,07,08,09,10,11,12,1.0,1.0,1.0*30
$GPRMC,053146.043,A,4059.463,N,02854.096,E,9304.8,343.2,240220,000.0,W*43
$GPGGA,053147.043,4101.981,N,02853.334,E,1,12,1.0,0.0,M,0.0,M,,*61
$GPGSA,A,3,01,02,03,04,05,06,07,08,09,10,11,12,1.0,1.0,1.0*30
$GPRMC,053147.043,A,4101.981,N,02853.334,E,9885.7,059.3,240220,000.0,W*47
$GPGGA,053148.043,4103.674,N,02856.197,E,1,12,1.0,0.0,M,0.0,M,,*67
$GPGSA,A,3,01,02,03,04,05,06,07,08,09,10,11,12,1.0,1.0,1.0*30
$GPRMC,053148.043,A,4103.674,N,02856.197,E,9218.0,082.0,240220,000.0,W*4D
$GPGGA,053149.043,4104.140,N,02859.534,E,1,12,1.0,0.0,M,0.0,M,,*63
$GPGSA,A,3,01,02,03,04,05,06,07,08,09,10,11,12,1.0,1.0,1.0*30
$GPRMC,053149.043,A,4104.140,N,02859.534,E,9964.0,088.5,240220,000.0,W*46
$GPGGA,053150.043,4104.233,N,02903.201,E,1,12,1.0,0.0,M,0.0,M,,*63
$GPGSA,A,3,01,02,03,04,05,06,07,08,09,10,11,12,1.0,1.0,1.0*30
$GPRMC,053150.043,A,4104.233,N,02903.201,E,7046.5,115.9,240220,000.0,W*4D
$GPGGA,053151.043,4103.177,N,02905.384,E,1,12,1.0,0.0,M,0.0,M,,*6C
$GPGSA,A,3,01,02,03,04,05,06,07,08,09,10,11,12,1.0,1.0,1.0*30
$GPRMC,053151.043,A,4103.177,N,02905.384,E,7196.9,160.1,240220,000.0,W*48
$GPGGA,053152.043,4101.250,N,02906.085,E,1,12,1.0,0.0,M,0.0,M,,*6A
$GPGSA,A,3,01,02,03,04,05,06,07,08,09,10,11,12,1.0,1.0,1.0*30
$GPRMC,053152.043,A,4101.250,N,02906.085,E,5100.4,191.6,240220,000.0,W*47
$GPGGA,053153.043,4059.851,N,02905.796,E,1,12,1.0,0.0,M,0.0,M,,*6A
$GPGSA,A,3,01,02,03,04,05,06,07,08,09,10,11,12,1.0,1.0,1.0*30
$GPRMC,053153.043,A,4059.851,N,02905.796,E,3831.8,239.5,240220,000.0,W*44
$GPGGA,053154.043,4059.198,N,02904.684,E,1,12,1.0,0.0,M,0.0,M,,*62
$GPGSA,A,3,01,02,03,04,05,06,07,08,09,10,11,12,1.0,1.0,1.0*30
$GPRMC,053154.043,A,4059.198,N,02904.684,E,8925.1,238.6,240220,000.0,W*48
$GPGGA,053155.043,4057.643,N,02902.130,E,1,12,1.0,0.0,M,0.0,M,,*62
$GPGSA,A,3,01,02,03,04,05,06,07,08,09,10,11,12,1.0,1.0,1.0*30
$GPRMC,053155.043,A,4057.643,N,02902.130,E,8760.7,257.5,240220,000.0,W*4B
$GPGGA,053156.043,4056.958,N,02859.040,E,1,12,1.0,0.0,M,0.0,M,,*6C
$GPGSA,A,3,01,02,03,04,05,06,07,08,09,10,11,12,1.0,1.0,1.0*30
$GPRMC,053156.043,A,4056.958,N,02859.040,E,12131.5,272.8,240220,000.0,W*74
$GPGGA,053157.043,4057.176,N,02854.590,E,1,12,1.0,0.0,M,0.0,M,,*6D
$GPGSA,A,3,01,02,03,04,05,06,07,08,09,10,11,12,1.0,1.0,1.0*30
$GPRMC,053157.043,A,4057.176,N,02854.590,E,7496.5,294.9,240220,000.0,W*40
$GPGGA,053158.043,4058.265,N,02852.242,E,1,12,1.0,0.0,M,0.0,M,,*62
$GPGSA,A,3,01,02,03,04,05,06,07,08,09,10,11,12,1.0,1.0,1.0*30
$GPRMC,053158.043,A,4058.265,N,02852.242,E,11973.3,327.1,240220,000.0,W*79
$GPGGA,053159.043,4101.250,N,02850.305,E,1,12,1.0,0.0,M,0.0,M,,*68
$GPGSA,A,3,01,02,03,04,05,06,07,08,09,10,11,12,1.0,1.0,1.0*30
$GPRMC,053159.043,A,4101.250,N,02850.305,E,10734.6,015.0,240220,000.0,W*79
$GPGGA,053200.043,4104.171,N,02851.088,E,1,12,1.0,0.0,M,0.0,M,,*65
$GPGSA,A,3,01,02,03,04,05,06,07,08,09,10,11,12,1.0,1.0,1.0*30
$GPRMC,053200.043,A,4104.171,N,02851.088,E,12075.1,071.8,240220,000.0,W*79
$GPGGA,053201.043,4105.506,N,02855.167,E,1,12,1.0,0.0,M,0.0,M,,*65
$GPGSA,A,3,01,02,03,04,05,06,07,08,09,10,11,12,1.0,1.0,1.0*30
$GPRMC,053201.043,A,4105.506,N,02855.167,E,21294.5,084.7,240220,000.0,W*75
$GPGGA,053202.043,4106.220,N,02902.953,E,1,12,1.0,0.0,M,0.0,M,,*6A
$GPGSA,A,3,01,02,03,04,05,06,07,08,09,10,11,12,1.0,1.0,1.0*30
$GPRMC,053202.043,A,4106.220,N,02902.953,E,17527.6,094.2,240220,000.0,W*77
$GPGGA,053203.043,4105.755,N,02909.380,E,1,12,1.0,0.0,M,0.0,M,,*60
$GPGSA,A,3,01,02,03,04,05,06,07,08,09,10,11,12,1.0,1.0,1.0*30
$GPRMC,053203.043,A,4105.755,N,02909.380,E,6934.3,156.9,240220,000.0,W*42
$GPGGA,053204.043,4103.922,N,02910.163,E,1,12,1.0,0.0,M,0.0,M,,*68
$GPGSA,A,3,01,02,03,04,05,06,07,08,09,10,11,12,1.0,1.0,1.0*30
$GPRMC,053204.043,A,4103.922,N,02910.163,E,4364.7,180.0,240220,000.0,W*41
$GPGGA,053205.043,4102.711,N,02910.163,E,1,12,1.0,0.0,M,0.0,M,,*66
$GPGSA,A,3,01,02,03,04,05,06,07,08,09,10,11,12,1.0,1.0,1.0*30
$GPRMC,053205.043,A,4102.711,N,02910.163,E,5415.7,189.4,240220,000.0,W*42
$GPGGA,053206.043,4101.219,N,02909.916,E,1,12,1.0,0.0,M,0.0,M,,*69
$GPGSA,A,3,01,02,03,04,05,06,07,08,09,10,11,12,1.0,1.0,1.0*30
$GPRMC,053206.043,A,4101.219,N,02909.916,E,11853.1,218.1,240220,000.0,W*7E
$GPGGA,053207.043,4058.390,N,02907.691,E,1,12,1.0,0.0,M,0.0,M,,*6B
$GPGSA,A,3,01,02,03,04,05,06,07,08,09,10,11,12,1.0,1.0,1.0*30
$GPRMC,053207.043,A,4058.390,N,02907.691,E,17453.1,247.8,240220,000.0,W*75
$GPGGA,053208.043,4056.087,N,02902.047,E,1,12,1.0,0.0,M,0.0,M,,*67
$GPGSA,A,3,01,02,03,04,05,06,07,08,09,10,11,12,1.0,1.0,1.0*30
$GPRMC,053208.043,A,4056.087,N,02902.047,E,24002.8,262.6,240220,000.0,W*79
$GPGGA,053209.043,4054.966,N,02853.354,E,1,12,1.0,0.0,M,0.0,M,,*66
$GPGSA,A,3,01,02,03,04,05,06,07,08,09,10,11,12,1.0,1.0,1.0*30
$GPRMC,053209.043,A,4054.966,N,02853.354,E,15673.9,283.8,240220,000.0,W*7A
$GPGGA,053210.043,4056.305,N,02847.875,E,1,12,1.0,0.0,M,0.0,M,,*6E
$GPGSA,A,3,01,02,03,04,05,06,07,08,09,10,11,12,1.0,1.0,1.0*30
$GPRMC,053210.043,A,4056.305,N,02847.875,E,13515.2,339.4,240220,000.0,W*70
$GPGGA,053211.043,4059.913,N,02846.515,E,1,12,1.0,0.0,M,0.0,M,,*67
$GPGSA,A,3,01,02,03,04,05,06,07,08,09,10,11,12,1.0,1.0,1.0*30
$GPRMC,053211.043,A,4059.913,N,02846.515,E,10435.0,004.9,240220,000.0,W*7B
$GPGGA,053212.043,4102.804,N,02846.762,E,1,12,1.0,0.0,M,0.0,M,,*6E
$GPGSA,A,3,01,02,03,04,05,06,07,08,09,10,11,12,1.0,1.0,1.0*30
$GPRMC,053212.043,A,4102.804,N,02846.762,E,14241.4,046.9,240220,000.0,W*71
$GPGGA,053213.043,4105.879,N,02850.058,E,1,12,1.0,0.0,M,0.0,M,,*6B
$GPGSA,A,3,01,02,03,04,05,06,07,08,09,10,11,12,1.0,1.0,1.0*30
$GPRMC,053213.043,A,4105.879,N,02850.058,E,18400.8,074.1,240220,000.0,W*7E
$GPGGA,053214.043,4107.679,N,02856.403,E,1,12,1.0,0.0,M,0.0,M,,*6C
$GPGSA,A,3,01,02,03,04,05,06,07,08,09,10,11,12,1.0,1.0,1.0*30
$GPRMC,053214.043,A,4107.679,N,02856.403,E,39049.2,091.7,240220,000.0,W*74
$GPGGA,053215.043,4107.245,N,02910.781,E,1,12,1.0,0.0,M,0.0,M,,*6C
$GPGSA,A,3,01,02,03,04,05,06,07,08,09,10,11,12,1.0,1.0,1.0*30
$GPRMC,053215.043,A,4107.245,N,02910.781,E,16132.4,138.6,240220,000.0,W*71
$GPGGA,053216.043,4103.519,N,02914.077,E,1,12,1.0,0.0,M,0.0,M,,*6F
$GPGSA,A,3,01,02,03,04,05,06,07,08,09,10,11,12,1.0,1.0,1.0*30
$GPRMC,053216.043,A,4103.519,N,02914.077,E,6268.4,180.0,240220,000.0,W*4A
$GPGGA,053217.043,4101.779,N,02914.077,E,1,12,1.0,0.0,M,0.0,M,,*68
$GPGSA,A,3,01,02,03,04,05,06,07,08,09,10,11,12,1.0,1.0,1.0*30
$GPRMC,053217.043,A,4101.779,N,02914.077,E,12148.2,209.0,240220,000.0,W*7D
$GPGGA,053218.043,4058.669,N,02912.347,E,1,12,1.0,0.0,M,0.0,M,,*6C
$GPGSA,A,3,01,02,03,04,05,06,07,08,09,10,11,12,1.0,1.0,1.0*30
$GPRMC,053218.043,A,4058.669,N,02912.347,E,15865.2,230.6,240220,000.0,W*74
$GPGGA,053219.043,4055.433,N,02908.392,E,1,12,1.0,0.0,M,0.0,M,,*6E
$GPGSA,A,3,01,02,03,04,05,06,07,08,09,10,11,12,1.0,1.0,1.0*30
$GPRMC,053219.043,A,4055.433,N,02908.392,E,28563.4,247.7,240220,000.0,W*74
$GPGGA,053220.043,4051.665,N,02859.163,E,1,12,1.0,0.0,M,0.0,M,,*68
$GPGSA,A,3,01,02,03,04,05,06,07,08,09,10,11,12,1.0,1.0,1.0*30
$GPRMC,053220.043,A,4051.665,N,02859.163,E,36611.5,271.5,240220,000.0,W*7D
$GPGGA,053221.043,4052.008,N,02845.732,E,1,12,1.0,0.0,M,0.0,M,,*68
$GPGSA,A,3,01,02,03,04,05,06,07,08,09,10,11,12,1.0,1.0,1.0*30
$GPRMC,053221.043,A,4052.008,N,02845.732,E,25389.2,322.1,240220,000.0,W*7F
$GPGGA,053222.043,4058.078,N,02840.995,E,1,12,1.0,0.0,M,0.0,M,,*60
$GPGSA,A,3,01,02,03,04,05,06,07,08,09,10,11,12,1.0,1.0,1.0*30
$GPRMC,053222.043,A,4058.078,N,02840.995,E,21838.5,358.8,240220,000.0,W*71
$GPGGA,053223.043,4104.140,N,02840.871,E,1,12,1.0,0.0,M,0.0,M,,*68
$GPGSA,A,3,01,02,03,04,05,06,07,08,09,10,11,12,1.0,1.0,1.0*30
$GPRMC,053223.043,A,4104.140,N,02840.871,E,18028.2,047.7,240220,000.0,W*7F
$GPGGA,053224.043,4107.990,N,02845.114,E,1,12,1.0,0.0,M,0.0,M,,*66
$GPGSA,A,3,01,02,03,04,05,06,07,08,09,10,11,12,1.0,1.0,1.0*30
$GPRMC,053224.043,A,4107.990,N,02845.114,E,24858.2,078.7,240220,000.0,W*7D
$GPGGA,053225.043,4109.758,N,02853.972,E,1,12,1.0,0.0,M,0.0,M,,*6C
$GPGSA,A,3,01,02,03,04,05,06,07,08,09,10,11,12,1.0,1.0,1.0*30
$GPRMC,053225.043,A,4109.758,N,02853.972,E,35559.2,088.2,240220,000.0,W*71
$GPGGA,053226.043,4110.161,N,02907.073,E,1,12,1.0,0.0,M,0.0,M,,*63
$GPGSA,A,3,01,02,03,04,05,06,07,08,09,10,11,12,1.0,1.0,1.0*30
$GPRMC,053226.043,A,4110.161,N,02907.073,E,19152.8,095.6,240220,000.0,W*7D
$GPGGA,053227.043,4109.479,N,02914.077,E,1,12,1.0,0.0,M,0.0,M,,*60
$GPGSA,A,3,01,02,03,04,05,06,07,08,09,10,11,12,1.0,1.0,1.0*30
$GPRMC,053227.043,A,4109.479,N,02914.077,E,13414.1,135.2,240220,000.0,W*75
$GPGGA,053228.043,4106.500,N,02917.043,E,1,12,1.0,0.0,M,0.0,M,,*6B
$GPGSA,A,3,01,02,03,04,05,06,07,08,09,10,11,12,1.0,1.0,1.0*30
$GPRMC,053228.043,A,4106.500,N,02917.043,E,18971.2,157.8,240220,000.0,W*76
$GPGGA,053229.043,4101.468,N,02919.103,E,1,12,1.0,0.0,M,0.0,M,,*69
$GPGSA,A,3,01,02,03,04,05,06,07,08,09,10,11,12,1.0,1.0,1.0*30
$GPRMC,053229.043,A,4101.468,N,02919.103,E,14929.1,213.7,240220,000.0,W*7A
$GPGGA,053230.043,4057.767,N,02916.631,E,1,12,1.0,0.0,M,0.0,M,,*66
$GPGSA,A,3,01,02,03,04,05,06,07,08,09,10,11,12,1.0,1.0,1.0*30
$GPRMC,053230.043,A,4057.767,N,02916.631,E,16513.7,221.0,240220,000.0,W*72
$GPGGA,053231.043,4053.939,N,02913.294,E,1,12,1.0,0.0,M,0.0,M,,*68
$GPGSA,A,3,01,02,03,04,05,06,07,08,09,10,11,12,1.0,1.0,1.0*30
$GPRMC,053231.043,A,4053.939,N,02913.294,E,16513.7,221.0,240220,000.0,W*7C
